{"1024": {"position": {"lat": 45.769684, "lng": 4.824607}, "name": "1024 - ROUVILLE", "address": "PLACE ROUVILLE"}, "4011": {"position": {"lat": 45.781574, "lng": 4.832866}, "name": "4011 - PLACE JEAN AMBRE", "address": "Place Jean Ambre"}, "8030": {"position": {"lat": 45.741425, "lng": 4.879733}, "name": "8030 - LA\u00cbNNEC", "address": "Angle rue Nungesser et Coli"}, "1031": {"position": {"lat": 45.768023, "lng": 4.831733}, "name": "1031 - PLACE DE LA PAIX", "address": "Place de la Paix - En face de La Poste"}, "3080": {"position": {"lat": 45.760042, "lng": 4.861734}, "name": "3080 - PART-DIEU / VILLETTE (FAR)", "address": "55 RUE DE LA VILLETTE"}, "5036": {"position": {"lat": 45.749627, "lng": 4.795546}, "name": "5036 - LA SALETTE", "address": "104 RUE DU COMMANDANT CHARCOT"}, "1034": {"position": {"lat": 45.770006, "lng": 4.829274}, "name": "1034 - CARM\u00c9LITES", "address": "30 MONTEE DES CARMELITES"}, "3083": {"position": {"lat": 45.761595, "lng": 4.850477}, "name": "3083 - LES HALLES", "address": "118 RUE MONCEY"}, "1036": {"position": {"lat": 45.774366, "lng": 4.832716}, "name": "1036 - AVEYRON", "address": "158 BVD DE LA CROIX-ROUSSE"}, "3085": {"position": {"lat": 45.757864, "lng": 4.868337}, "name": "3085 - SACRE COEUR", "address": "66 RUE ANTOINE CHARIAL"}, "3086": {"position": {"lat": 45.749563, "lng": 4.875934}, "name": "3086 - FEUILLAT / LACASSAGNE", "address": "76 AV. LACASSAGNE"}, "3087": {"position": {"lat": 45.762768, "lng": 4.852563}, "name": "3087 - PART-DIEU / GARIBALDI", "address": "4 BVD EUGENE DERUELLE"}, "3088": {"position": {"lat": 45.75882, "lng": 4.846453}, "name": "3088 - PLACE GUICHARD", "address": "65 RUE MAZENOD"}, "10072": {"position": {"lat": 45.774228, "lng": 4.864269}, "name": "10072 - JACQUES BREL", "address": "Rue Jacques Brel/angle rue Korel"}, "1002": {"position": {"lat": 45.767524, "lng": 4.836306}, "name": "1002 - OP\u00c9RA (FAR)", "address": "Angle rue Serlin - Angle place de la com\u00e9die"}, "10086": {"position": {"lat": 45.769837, "lng": 4.889629}, "name": "10086 - ANATOLE FRANCE", "address": "Angle Rue de Pr\u00e9ssens\u00e9 / Flachet"}, "4014": {"position": {"lat": 45.777431, "lng": 4.820526}, "name": "4014 - PHILIPPE DE LASSALLE / PILLEMENT", "address": "Angle rue Pillement"}, "3094": {"position": {"lat": 45.757808, "lng": 4.861512}, "name": "3094 - VILLETTE", "address": "74 RUE DE LA VILLETTE"}, "8025": {"position": {"lat": 45.744447, "lng": 4.860889}, "name": "8025 - DUMONT / JOUVET", "address": "12 RUE SANTOS DUMONT"}, "3097": {"position": {"lat": 45.757192, "lng": 4.840495}, "name": "3097 - AUGAGNEUR / FOSSE AUX OURS (FAR)", "address": "28 QUAI VICTOR AUGAGNEUR"}, "3099": {"position": {"lat": 45.757042, "lng": 4.8653200000000005}, "name": "3099 - PLACE SAINTE ANNE", "address": "10 PLACE SAINTE ANNE"}, "3100": {"position": {"lat": 45.752779, "lng": 4.868748}, "name": "3100 - SISLEY / DAUPHINE", "address": "61 RUE DU DAUPHINE"}, "3101": {"position": {"lat": 45.762055, "lng": 4.868486}, "name": "3101 - PATINOIRE BARABAN", "address": "55 RUE DE BARABAN"}, "3102": {"position": {"lat": 45.75254, "lng": 4.894272}, "name": "3102 - DR LONG / AUBEPINS", "address": "135 COURS DOCTEUR LONG"}, "3103": {"position": {"lat": 45.7548502313005, "lng": 4.85748756866509}, "name": "3103 - PLACE DANTON", "address": "3 PLACE DANTON"}, "5026": {"position": {"lat": 45.763383, "lng": 4.829024}, "name": "5026 - RUE DE LA BALEINE", "address": "Angle quai Romain Rolland"}, "3018": {"position": {"lat": 45.756596, "lng": 4.848442}, "name": "3018 - CR\u00c9QUI / VOLTAIRE", "address": "Angle rue Paul Bert"}, "7003": {"position": {"lat": 45.751827, "lng": 4.8526}, "name": "7003 - GAMBETTA / GARIBALDI (FAR)", "address": "Cours Gambette - Prolongement rue Rachais"}, "4017": {"position": {"lat": 45.776002, "lng": 4.829628}, "name": "4017 - PLACE DES TAPIS", "address": "Angle Bvd de la Croix-Rousse"}, "7004": {"position": {"lat": 45.74656, "lng": 4.842265}, "name": "7004 - MAIRIE DU 7\u00c8ME (FAR)", "address": "Place Jean Mac\u00e9 - Face \u00e0 la mairie"}, "3053": {"position": {"lat": 45.751123, "lng": 4.855604}, "name": "3053 - GAMBETTA / JUSSERAND (FAR)", "address": "Angle cours Gambetta"}, "8051": {"position": {"lat": 45.724172, "lng": 4.854165}, "name": "8051 - H\u00d4PITAL ST JEAN DE DIEU", "address": "303 ROUTE DE VIENNE (VENISSIEUX)"}, "3002": {"position": {"lat": 45.760139, "lng": 4.85873}, "name": "3002 - PART-DIEU / GARE SNCF (FAR)", "address": "1 PLACE CHARLES BERAUDIER"}, "1032": {"position": {"lat": 45.767165, "lng": 4.836334}, "name": "1032 - PIZAY (FAR)", "address": "17 RUE PIZAY"}, "5031": {"position": {"lat": 45.754654, "lng": 4.78821}, "name": "5031- MENIVAL/J.CURIE", "address": "49 RUE JOLIOT CURIE"}, "9032": {"position": {"lat": 45.773815, "lng": 4.809566}, "name": "9032 - PLACE DU PORT MOUTON", "address": "Quai Arloing, C\u00f4t\u00e9 Sa\u00f4ne"}, "7007": {"position": {"lat": 45.735741, "lng": 4.827725}, "name": "7007 - FARGE / AYASSE", "address": "Angle Bld Y. Farge / rue Commandant Ayasse"}, "3082": {"position": {"lat": 45.757672, "lng": 4.845111}, "name": "3082 - PLACE BAHADOURIAN", "address": "160 RUE PIERRE CORNEILLE"}, "5045": {"position": {"lat": 45.750205, "lng": 4.792193}, "name": "5045 - VALDO / RIVET", "address": "64 RUE JEUNET"}, "10080": {"position": {"lat": 45.775409, "lng": 4.880261}, "name": "10080 - VAILLANT / PERRONCEL", "address": "96 RUE ALEXIS PERRONCEL (VILLEURBANNE)"}, "1035": {"position": {"lat": 45.772191, "lng": 4.837917}, "name": "1035 - QUAI LASSAGNE", "address": "3 QUAI ANDRE LASSAGNE"}, "4005": {"position": {"lat": 45.77762, "lng": 4.83453}, "name": "4005 - PLACE BERTONE", "address": "Rue du Chariot d'Or"}, "3084": {"position": {"lat": 45.757268, "lng": 4.855193}, "name": "3084 - DESAIX", "address": "143 RUE PAUL BERT"}, "5047": {"position": {"lat": 45.753452, "lng": 4.804401}, "name": "5047 - ALB\u00c9RIC PONT", "address": "2B RUE DR. ALBERIC PONT"}, "8034": {"position": {"lat": 45.738301, "lng": 4.862727}, "name": "8034 - BERTHELOT / VILLON", "address": "Angle avenue Berthelot"}, "9033": {"position": {"lat": 45.767484, "lng": 4.805626}, "name": "9033 - GORGE DE LOUP", "address": "49 RUE SGT BERTHET"}, "10083": {"position": {"lat": 45.777873, "lng": 4.884238}, "name": "10083 - CHATEAU GAILLARD / BIENVENUS", "address": "2 RUE DES BIENVENUS"}, "3001": {"position": {"lat": 45.76027, "lng": 4.858454}, "name": "3001 - PART-DIEU / VIVIER MERLE (FAR)", "address": "Derri\u00e8re la station de tram"}, "10041": {"position": {"lat": 45.752923, "lng": 4.898891}, "name": "10041 - KIMMERLING", "address": "1 PLACE KIMMERLING (VILLEURBANNE)"}, "7012": {"position": {"lat": 45.7295, "lng": 4.829697}, "name": "7012 - PLACE DES PAVILLONS", "address": "Place des Pavillons - Devant la biblioth\u00e8que"}, "5050": {"position": {"lat": 45.758333, "lng": 4.821075}, "name": "5050 - THEATRE ROMAIN", "address": "1 RUE DE L'ANTIQUAILLE"}, "8037": {"position": {"lat": 45.734027, "lng": 4.862906}, "name": "8037 - CAZENEUVE", "address": "Rue Paul Cazeneuve - Angle du boulevard des Etats-Unis"}, "8010": {"position": {"lat": 45.740052, "lng": 4.8594100000000005}, "name": "8010 - PLACE MEND\u00c8S FRANCE", "address": "95 AV. DE L'EUROPE"}, "7014": {"position": {"lat": 45.752989, "lng": 4.841417}, "name": "7014 - MARSEILLE / F\u00c9LISSENT", "address": "Rue Felissent, angle rue de Marseille"}, "2015": {"position": {"lat": 45.760698, "lng": 4.836279}, "name": "2015 - PLACE DE LA R\u00c9PUBLIQUE (FAR)", "address": "C\u00f4t\u00e9 est de la place"}, "3089": {"position": {"lat": 45.745304, "lng": 4.888964}, "name": "3089 - TRARIEUX / LACASSAGNE", "address": "221 AV. LACASSAGNE"}, "3038": {"position": {"lat": 45.757415, "lng": 4.858911}, "name": "3038 - VIVIER MERLE / PAUL BERT", "address": "Devant le b\u00e2timent de la CAFAL"}, "8039": {"position": {"lat": 45.738617, "lng": 4.852412}, "name": "8039 - PIERRE DELORE", "address": "97 ROUTE DE VIENNE"}, "7011": {"position": {"lat": 45.743756, "lng": 4.847406}, "name": "7011 - BERTHELOT / GARIBALDI", "address": "Rue Garibaldi - Angle avenue Berthelot"}, "3005": {"position": {"lat": 45.75377, "lng": 4.848043}, "name": "3005 - SAXE-GAMBETTA (FAR)", "address": "Place Victor Basch"}, "10088": {"position": {"lat": 45.766219, "lng": 4.89788}, "name": "10088 - 4 AO\u00dbT 1789 / PRESSENS\u00c9", "address": "COURS EMILE ZOLA (VILLEURBANNE)"}, "3091": {"position": {"lat": 45.748286, "lng": 4.896975}, "name": "3091 - HOPITAL NEUROLOGIQUE", "address": "54 BVD PINEL"}, "8041": {"position": {"lat": 45.724775, "lng": 4.870745}, "name": "8041 - ETATS UNIS / VIVIANI", "address": "170 Boulevard des Etats-Unis, Angle Avenue Viviani, direction Venissieux"}, "7052": {"position": {"lat": 45.745939, "lng": 4.851214}, "name": "7052 - PARC BLANDAN", "address": "Rue de l'Epargne"}, "5055": {"position": {"lat": 45.762013, "lng": 4.802751}, "name": "5055 - BUYER / APOLLINAIRE", "address": "101 AV. BARTHELEMY BUYER"}, "7018": {"position": {"lat": 45.740279, "lng": 4.8320609999999995}, "name": "7018 - LYCEE LOUISE LABE", "address": "2 Rue Cr\u00e9pet 69007 Lyon"}, "10039": {"position": {"lat": 45.779487, "lng": 4.891692}, "name": "10039 - BOUVIER", "address": "Rue Professeur Bouvier/Angle rue du 8 mai 1945"}, "10063": {"position": {"lat": 45.758399, "lng": 4.885601}, "name": "10063 - PERRIN / JEAN JAUR\u00c8S", "address": "7 PLACE JULES GRANDCLEMENT (VILLEURBANNE)"}, "10046": {"position": {"lat": 45.770705, "lng": 4.867201}, "name": "10046 - CHARMETTES/ZOLA", "address": "Rue des Charmettes/Angle Cours Emile Zola"}, "7020": {"position": {"lat": 45.724352, "lng": 4.826821}, "name": "7020 - PARC DE GERLAND", "address": "All\u00e9e Pierre de Coubertin"}, "3007": {"position": {"lat": 45.743396, "lng": 4.87897}, "name": "3007 - PLACE D'ARSONVAL (FAR)", "address": "A c\u00f4t\u00e9 du stand de fleurs"}, "7001": {"position": {"lat": 45.754875, "lng": 4.843627}, "name": "7001 - PLACE GABRIEL P\u00c9RI (FAR)", "address": "Place Gabriel P\u00e9ri"}, "6023": {"position": {"lat": 45.766821, "lng": 4.841095}, "name": "6023 - QUAI SARRAIL", "address": "Niveau rue de S\u00e8ze"}, "6006": {"position": {"lat": 45.773304, "lng": 4.852001}, "name": "6006 - BOULEVARD DES BELGES", "address": "Boulevard des Belges - Angle rue Duquesne"}, "7046": {"position": {"lat": 45.730083, "lng": 4.82781}, "name": "7046 - PLACE DE L'ECOLE", "address": "Angle rue de St Cloud"}, "6011": {"position": {"lat": 45.768395, "lng": 4.8494019999999995}, "name": "6011- MAIRIE DU 6\u00c8ME", "address": "Angle rue Boileau"}, "8001": {"position": {"lat": 45.748535, "lng": 4.861533}, "name": "8001 - UNIVERSIT\u00c9 LYON III (FAR)", "address": "Devant entr\u00e9e principale de l'universit\u00e9"}, "10064": {"position": {"lat": 45.764812, "lng": 4.884311}, "name": "10064 - 4 AO\u00dbT 1789", "address": "Angle Rue Rollet/Blanqui"}, "10030": {"position": {"lat": 45.773845, "lng": 4.893851}, "name": "10030 - GREUZE", "address": "126 RUE DU 8 MAI 1945 (VILLEURBANNE)"}, "3015": {"position": {"lat": 45.760779, "lng": 4.85276}, "name": "3015 - SERVIENT / GARIBALDI", "address": "Angle rue Garibaldi"}, "10013": {"position": {"lat": 45.764961, "lng": 4.901018}, "name": "10013 - CUSSET", "address": "103 RUE PIERRE VOYANT (VILLEURBANNE)"}, "5001": {"position": {"lat": 45.757319, "lng": 4.815064}, "name": "5001 - PLACE VARILLON (FUNICULAIRE ST JUST)", "address": "Devant le n\u00b063 rue de Trion"}, "7064": {"position": {"lat": 45.74541, "lng": 4.847843}, "name": "7064 - CROUS", "address": "96 RUE CHEVREUL"}, "6007": {"position": {"lat": 45.769654, "lng": 4.852366}, "name": "6007 - MASS\u00c9NA", "address": "Angle Cours Vitton"}, "4041": {"position": {"lat": 45.775435, "lng": 4.83512}, "name": "4041 - BOUSSANGES / AUSTERLITZ", "address": "17 RUE D'AUSTERLITZ"}, "10102": {"position": {"lat": 45.781008, "lng": 4.871219}, "name": "10102 - DOUA / G. BERGER", "address": "ave G. Berger"}, "8052": {"position": {"lat": 45.747032, "lng": 4.859612}, "name": "8052 - CLINIQUE MONPLAISIR", "address": "2 AV. DES FRERES LUMIERE"}, "7061": {"position": {"lat": 45.748545, "lng": 4.843249}, "name": "7061 - JAURES / UNIVERSITE", "address": "64 AV. JEAN JAURES"}, "1012": {"position": {"lat": 45.765789, "lng": 4.836906}, "name": "1012 - AMP\u00c8RE / BOURSE", "address": "Rue de la Bourse - Long du Coll\u00e8ge-Lyc\u00e9e Amp\u00e8re"}, "10025": {"position": {"lat": 45.763652, "lng": 4.873158}, "name": "10025 - TOTEM", "address": ""}, "6005": {"position": {"lat": 45.765811, "lng": 4.844767}, "name": "6005 - PLACE EDGAR QUINET", "address": "Devant le lyc\u00e9e"}, "10031": {"position": {"lat": 45.780679, "lng": 4.88356}, "name": "10031 - CROIX LUIZET", "address": "sur la place Croix Luizet"}, "11001": {"position": {"lat": 45.785796, "lng": 4.833733}, "name": "11001 - GARE DE CUIRE", "address": "2 RUE CLAUDE BERNARD (CALUIRE ET CUIRE)"}, "8054": {"position": {"lat": 45.740865, "lng": 4.868244}, "name": "8054 - MARTINIERE MONPLAISIR", "address": "34 RUE ANTOINE LUMIERE"}, "11003": {"position": {"lat": 45.791748, "lng": 4.823595}, "name": "11003 - LA ROCHETTE", "address": "Quai Gillet au  niveau de la place de la Rochette. Caluire et Cuire."}, "7031": {"position": {"lat": 45.739827, "lng": 4.840308}, "name": "7031 - JAUR\u00c8S / GERLAND", "address": "42 Rue de Gerland 69007 Lyon"}, "7016": {"position": {"lat": 45.748925, "lng": 4.847714}, "name": "7016 - PLACE SAINT LOUIS", "address": "Rue de la Madeleine - Angle rue St Lazarre"}, "2030": {"position": {"lat": 45.764079, "lng": 4.835554}, "name": "2030 - R\u00c9PUBLIQUE / POULAILLERIE (FAR)", "address": "Angle Poulaillerie / R\u00e9publique"}, "6008": {"position": {"lat": 45.7684, "lng": 4.858972}, "name": "6008 - PLACE JULES FERRY", "address": "17 PLACE JULES FERRY"}, "8057": {"position": {"lat": 45.732483, "lng": 4.853406}, "name": "8057 - VIENNE / MONTAGNY", "address": "184 ROUTE DE VIENNE"}, "10117": {"position": {"lat": 45.764567, "lng": 4.892349}, "name": "10117 - LA PERALLI\u00c8RE", "address": "166 RUE DU QUATRE AOUT (VILLEURBANNE)"}, "7034": {"position": {"lat": 45.753705, "lng": 4.838283}, "name": "7034 - PISCINE DU RH\u00d4NE", "address": "Sur le quai devant l'entr\u00e9e de la piscine"}, "12001": {"position": {"lat": 45.760908, "lng": 4.920569}, "name": "12001 - LA SOIE", "address": "45 RUE DE LA POUDRETTE (VILLEURBANNE)"}, "12002": {"position": {"lat": 45.76438, "lng": 4.919276}, "name": "12002 - POUDRETTE LA SOIE", "address": "Face au 2 rue de la Poudrette, Vaulx en Velin"}, "8059": {"position": {"lat": 45.735375, "lng": 4.88954}, "name": "8059 - LAENNEC / PINEL", "address": "173 BVD PINEL (BRON)"}, "9051": {"position": {"lat": 45.786546, "lng": 4.7971070000000005}, "name": "9051 - ANDREI SAKHAROV", "address": "373 AV. ANDREI SAKHAROV"}, "5041": {"position": {"lat": 45.766537, "lng": 4.819936}, "name": "5041 - L'HOMME DE LA ROCHE", "address": "55 QUAI PIERRE SCIZE"}, "10110": {"position": {"lat": 45.75958, "lng": 4.882739}, "name": "10110 - M\u00c9MOIRE ET SOCI\u00c9T\u00c9", "address": "20 RUE VALENTIN HAUY (VILLEURBANNE)"}, "10101": {"position": {"lat": 45.779429, "lng": 4.873992}, "name": "10101 - EINSTEIN / BOULEVARD DU 11 NOVEMBRE", "address": "43 BVD DU 11 NOVEMBRE 1918 (VILLEURBANNE)"}, "5007": {"position": {"lat": 45.757916, "lng": 4.81317}, "name": "5007 - PLACE DE TRION", "address": "Place de Trion"}, "11002": {"position": {"lat": 45.785465, "lng": 4.847838}, "name": "11002 - SAINT CLAIR", "address": "49 COURS ARISTIDE BRIAND (CALUIRE)"}, "7039": {"position": {"lat": 45.751073, "lng": 4.848018}, "name": "7039 - GUILLOTI\u00c8RE / MADELEINE", "address": "Angle rue de la Madeleine"}, "2025": {"position": {"lat": 45.762054, "lng": 4.833194}, "name": "2025 - MERCI\u00c8RE / FERRANDI\u00c8RE", "address": "Entre rue de Brest et rue Merci\u00e8re"}, "3043": {"position": {"lat": 45.753975, "lng": 4.867336}, "name": "3043 - PLACE ROUGET DE L'ISLE", "address": "Avenue Lacassagne"}, "6016": {"position": {"lat": 45.766002, "lng": 4.86218}, "name": "6016 - VIABERT / THIERS", "address": "Angle avenue Thiers"}, "5005": {"position": {"lat": 45.766278, "lng": 4.827425}, "name": "5005 - SAINT PAUL", "address": "Pr\u00e8s de la gare de St Paul"}, "10027": {"position": {"lat": 45.766861, "lng": 4.880059}, "name": "10027 - MAIRIE DE VILLEURBANNE", "address": "Avenue Aristide Briand, en face de la mairie"}, "7057": {"position": {"lat": 45.734712, "lng": 4.8354859999999995}, "name": "7057 - JAURES / BOLLIER", "address": "217b\u2013221 Avenue Jean Jaur\u00e8s 69007 Lyon"}, "10113": {"position": {"lat": 45.755768, "lng": 4.891542}, "name": "10113 - GARE DE VILLEURBANNE", "address": "49 AV. GENERAL LECLERC (VILLEURBANNE)"}, "9004": {"position": {"lat": 45.779786, "lng": 4.804666}, "name": "9004 - GARE DE VAISE", "address": "Face entr\u00e9e de la gare"}, "5004": {"position": {"lat": 45.760468, "lng": 4.826548}, "name": "5004 - ST JEAN (FAR)", "address": "Entre la cath\u00e9drale et le funiculaire"}, "2007": {"position": {"lat": 45.742617, "lng": 4.820464}, "name": "2007 - PATINOIRE CHARLEMAGNE", "address": "Angle rue Casimir P\u00e9rier"}, "10001": {"position": {"lat": 45.785632, "lng": 4.882366}, "name": "10001 - IUT / FEYSSINE", "address": "rue de la Technologie"}, "10002": {"position": {"lat": 45.782222, "lng": 4.876951}, "name": "10002 - INSA (FAR)", "address": "Avenue Albert Einstein au niveau du virage"}, "10115": {"position": {"lat": 45.754181, "lng": 4.90528}, "name": "10115 - PLACE D'ESPAGNE / STADE KRUGER", "address": "173 AV. PAUL KRUGER (VILLEURBANNE)"}, "10004": {"position": {"lat": 45.776217, "lng": 4.862636}, "name": "10004 - TONKIN", "address": "Rue Salvador Allende / Angle promenade du Lys"}, "10005": {"position": {"lat": 45.779702, "lng": 4.860029}, "name": "10005 - BOULEVARD DU 11 NOVEMBRE", "address": "Face Entr\u00e9e du Parc de la T\u00eate d'Or"}, "10006": {"position": {"lat": 45.770224999999996, "lng": 4.863102}, "name": "10006 - CHARPENNES (FAR)", "address": "Place Charles Hernu / c\u00f4t\u00e9 sud"}, "10007": {"position": {"lat": 45.774204, "lng": 4.867512}, "name": "10007 - PIATON / CONDORCET", "address": "Av Piaton / angle Condorcet"}, "10008": {"position": {"lat": 45.778385, "lng": 4.879673}, "name": "10008 - SALENGRO / VAILLANT", "address": "Rue Roger Salengro - Angle rue Vaillant"}, "10011": {"position": {"lat": 45.769226, "lng": 4.880491}, "name": "10011 - GRATTE CIEL", "address": "174 COURS EMILE ZOLA"}, "10012": {"position": {"lat": 45.767957, "lng": 4.887232}, "name": "10012 - ZOLA / FRANCE", "address": "Rue de France/Angle Cours Emile Zola"}, "3044": {"position": {"lat": 45.762023, "lng": 4.841053}, "name": "3044 - QUAI AUGAGNEUR (FAR)", "address": "Entre rue de Bonnel et rue Rabelais"}, "10014": {"position": {"lat": 45.765214, "lng": 4.909808}, "name": "10014 - GARE L. BONNEVAY", "address": "64 AV. MARCEL CERDAN"}, "6021": {"position": {"lat": 45.770664, "lng": 4.849946}, "name": "6021- GARIBALDI", "address": "Entre rue Crillon et rue Sully"}, "10016": {"position": {"lat": 45.752074, "lng": 4.91466}, "name": "10016 - PLACE DE LA PAIX", "address": "10 PLACE DE LA PAIX (VILLEURBANNE)"}, "10032": {"position": {"lat": 45.757173, "lng": 4.89998}, "name": "10032 - PRIMAT / DECORPS", "address": "Rue Antoine Primat/Angle rue Decorps"}, "10018": {"position": {"lat": 45.761801, "lng": 4.880735}, "name": "10018 - TOLSTO\u00cf / FLORIAN", "address": "Rue Florian/Angle Cours Tolsto\u00ef"}, "7002": {"position": {"lat": 45.751404, "lng": 4.8363949999999996}, "name": "7002 - UNIVERSIT\u00c9S LYON III / LYON II (FAR)", "address": "Quai Claude Bernard"}, "10118": {"position": {"lat": 45.767194, "lng": 4.900597}, "name": "10118 - VOYANT / CHAMBORD", "address": "99 RUE PIERRE VOYANT (VILLEURBANNE)"}, "10024": {"position": {"lat": 45.7563424627814, "lng": 4.87833622546792}, "name": "10024 - MAISONS NEUVES", "address": "Place des Maisons Neuves/C\u00f4t\u00e9 rue Jean Jaur\u00e8s"}, "3036": {"position": {"lat": 45.75381, "lng": 4.859795}, "name": "03036 - FELIX FAURE / VIVIER MERLE", "address": "AVENUE FELIX FAURE ANGLE VIVIER MERLE. 10M AVANT VIVIER MERLE EN DIRECTION DU RHONE"}, "9002": {"position": {"lat": 45.774241, "lng": 4.805676}, "name": "9002 - MAIRIE DU 9\u00b0", "address": "Prox. m\u00e9tro Valmy"}, "9003": {"position": {"lat": 45.775679, "lng": 4.805314}, "name": "9003 - PLACE VALMY", "address": "Rue Roquette / angle rue de Bourgogne"}, "10028": {"position": {"lat": 45.767467, "lng": 4.874032}, "name": "10028 - ECOLE DE MUSIQUE", "address": "Cours de la R\u00e9publique/Angle Anatole France"}, "9010": {"position": {"lat": 45.771034, "lng": 4.7964400000000005}, "name": "9010 - PISCINE DE VAISE", "address": "37 AV. SIDOINE APOLLINAIRE"}, "9006": {"position": {"lat": 45.777287, "lng": 4.803297}, "name": "9006 - TH\u00c9\u00c2TRE NOUVELLE G\u00c9N\u00c9RATION", "address": "Rue Tissot / angle rue de Bourgogne"}, "3037": {"position": {"lat": 45.757112, "lng": 4.853405}, "name": "3037 - PAUL BERT / GARIBALDI", "address": "Rue Paul Bert"}, "9008": {"position": {"lat": 45.797415, "lng": 4.829038}, "name": "9008 - L'ILE BARBE", "address": "3 QUAI PAUL SEDAILLAN"}, "6024": {"position": {"lat": 45.770743, "lng": 4.856713}, "name": "6024 - TRONCHET / ANATOLE FRANCE", "address": "Angle bvd Anatole France"}, "10034": {"position": {"lat": 45.761825, "lng": 4.886156}, "name": "10034 - DOCTEUR DAMIDOT", "address": "Devant la MJC"}, "9011": {"position": {"lat": 45.769803, "lng": 4.8126809999999995}, "name": "9011 - CONSERVATOIRE", "address": "Quai Chauveau / angle Pont Koenig"}, "2042": {"position": {"lat": 45.751873, "lng": 4.824763}, "name": "2042 - JOFFRE / VAUBECOUR", "address": "43 RUE VAUBECOUR"}, "9013": {"position": {"lat": 45.787522, "lng": 4.814418}, "name": "9013 - QUAI PAUL S\u00c9DALLIAN", "address": "Angle rue de la Navigation"}, "9014": {"position": {"lat": 45.784334, "lng": 4.812215}, "name": "9014 - QUAI DU COMMERCE", "address": "Angle rue Emile Duport"}, "7049": {"position": {"lat": 45.727951, "lng": 4.823563}, "name": "7049 - CIT\u00c9 SCOLAIRE INTERNATIONALE", "address": "27\u201333 Rue Alexander Fleming 69007 Lyon"}, "3079": {"position": {"lat": 45.75118, "lng": 4.884795}, "name": "3079 - PLACE LOUISE", "address": "4 PLACE LOUISE"}, "10035": {"position": {"lat": 45.763139, "lng": 4.900492}, "name": "10035 - BOIRON GRANG\u00c9", "address": "43 RUE PIERRE BARATIN (VILLEURBANNE)"}, "2005": {"position": {"lat": 45.740675, "lng": 4.819284}, "name": "2005 - CONFLUENCE H\u00d4TEL DE R\u00c9GION", "address": "101 cours Charlemagne Lyon 2 direction centre ville. Devant l'h\u00f4tel de R\u00e9gion"}, "10043": {"position": {"lat": 45.782994, "lng": 4.890614}, "name": "10043 - SALENGRO / FEYSSINE", "address": "RUE DE LA FEYSSINE (VILLEURBANNE)"}, "9020": {"position": {"lat": 45.773468, "lng": 4.800286}, "name": "9020 - BOURBONNAIS", "address": "Angle rue Horand / rue Masset"}, "5002": {"position": {"lat": 45.756535, "lng": 4.796616}, "name": "5002 - PLACE DES COMPAGNONS DE LA CHANSON", "address": "Angle rue des Aqueducs"}, "9022": {"position": {"lat": 45.778639, "lng": 4.8071}, "name": "9022 - RUE MASARYK / SAINT CYR", "address": "Angle rue Chinard/rue St Cyr"}, "10047": {"position": {"lat": 45.771143, "lng": 4.88504}, "name": "10047 - LHERMINIER/PRESSENS\u00c9", "address": "Avenue du Cdt Lherminier/Angle rue F. de Pressens\u00e9"}, "10048": {"position": {"lat": 45.759176, "lng": 4.875958}, "name": "10048 - PLACE MARENGO", "address": "52 AV. MARC SANGNIER (VILLEURBANNE)"}, "10049": {"position": {"lat": 45.769158, "lng": 4.89678}, "name": "10049 - PRESSENS\u00c9", "address": "Rue Francis de Pressens\u00e9/angle 8 mai 1945"}, "8002": {"position": {"lat": 45.745296, "lng": 4.871604}, "name": "8002- PLACE AMBROISE COURTOIS", "address": "Face au cours Albert Thomas"}, "8003": {"position": {"lat": 45.738135, "lng": 4.8868849999999995}, "name": "8003 - CLAUDE BERNARD LYON I", "address": "Devant entr\u00e9e de la fac"}, "8004": {"position": {"lat": 45.735158, "lng": 4.872803}, "name": "8004 - MAIRIE DU 8\u00c8ME", "address": "Devant la mairie du 8e"}, "10053": {"position": {"lat": 45.77939, "lng": 4.863068}, "name": "10053 - ROSSELINI / 11 NOVEMBRE", "address": "1 PLACE DE CROIX LUIZET"}, "8006": {"position": {"lat": 45.729771, "lng": 4.868157}, "name": "8006 - PLACE DU 8 MAI 1945", "address": "Rue Professeur Beauvisage/Angle bd des Etats-Unis"}, "10055": {"position": {"lat": 45.776428, "lng": 4.866976}, "name": "10055 - CONDORCET / GALLINE", "address": "Avenue Galline/angle av. de Condorcet"}, "8008": {"position": {"lat": 45.727881, "lng": 4.86355}, "name": "8008 - BEAUVISAGE / PRESSENS\u00c9", "address": "Rue du Professeur Beauvisage"}, "8009": {"position": {"lat": 45.73648, "lng": 4.869789}, "name": "8009 - JEAN XXIII / MERMOZ", "address": "Boulevard Jean XXIII - Angle de la rue Mermoz"}, "10058": {"position": {"lat": 45.767051, "lng": 4.892467}, "name": "10058 - M\u00c9TRO FLACHET", "address": "274 COURS EMILE ZOLA (VILLEURBANNE)"}, "8011": {"position": {"lat": 45.735653, "lng": 4.853042}, "name": "8011 - PLACE LEBRET", "address": "C\u00f4t\u00e9 route de Vienne"}, "10060": {"position": {"lat": 45.758805, "lng": 4.87889}, "name": "10060 - SAINT EXUP\u00c9RY", "address": "Avenue Antoine Saint Exupery"}, "10061": {"position": {"lat": 45.77081, "lng": 4.872844}, "name": "10061 - R\u00c9PUBLIQUE", "address": "Cours Emile Zola/Angle cours de la R\u00e9publique"}, "10054": {"position": {"lat": 45.776715, "lng": 4.859573}, "name": "10054 - STALINGRAD / MELI\u00c8S", "address": "RUE GEORGES MELIES (VILLEURBANNE)"}, "8015": {"position": {"lat": 45.740324, "lng": 4.874192}, "name": "8015 - BOULEVARD JEAN XXIII", "address": "RUE MARYSE BASTIE"}, "9040": {"position": {"lat": 45.770991, "lng": 4.807578}, "name": "9040 - PLACE RHODIACETA", "address": "1 PLACE DE LA RHODIACETA"}, "9041": {"position": {"lat": 45.792478, "lng": 4.820567}, "name": "9041 - CARRET / S\u00c9DALLIAN", "address": "10 QUAI PAUL SEDAILLAN"}, "9042": {"position": {"lat": 45.786533, "lng": 4.811446}, "name": "9042 - VAISE DOCKS", "address": "92 RUE DU BOURBONNAIS"}, "9043": {"position": {"lat": 45.776087, "lng": 4.7997250000000005}, "name": "9043 - MARIETTON OUEST", "address": ""}, "9044": {"position": {"lat": 45.770508, "lng": 4.800869}, "name": "9044 - MASSET / SAINT PIERRE DE VAISE", "address": "20 AV. JOANNES MASSET"}, "8021": {"position": {"lat": 45.728542, "lng": 4.877279}, "name": "8021 - PAUL SANTY", "address": "Place G\u00e9n\u00e9ral Andr\u00e9 - Face au 126 avenue Paul Santy"}, "10071": {"position": {"lat": 45.761597, "lng": 4.896386}, "name": "10071 - LYC\u00c9E MARIE CURIE", "address": "64 BVD EUGENE REGUILLON (VILLEURBANNE)"}, "8024": {"position": {"lat": 45.733317, "lng": 4.878607}, "name": "8024 - MERMOZ / MICHELET", "address": "Angle av Michelet"}, "9049": {"position": {"lat": 45.770136, "lng": 4.80516}, "name": "9049 - SERGENT BERTHET / GORGE DE LOUP", "address": "23 RUE GORGE DE LOUP"}, "10074": {"position": {"lat": 45.770099, "lng": 4.876728}, "name": "10074 - ZOLA / PASSAGE REY", "address": "Cours E. Zola / Angle passage Rey"}, "10075": {"position": {"lat": 45.772277, "lng": 4.865774}, "name": "10075 - GABRIEL P\u00c9RI", "address": "Angle cours Andr\u00e9 Philip"}, "9052": {"position": {"lat": 45.789194, "lng": 4.799308}, "name": "9052 - BALMONT", "address": "360 BVD DE BALMONT"}, "8029": {"position": {"lat": 45.732366, "lng": 4.865101}, "name": "8029 - ETATS UNIS LEVIGNE", "address": "81 BVD DES Etats-Unis"}, "7006": {"position": {"lat": 45.727494, "lng": 4.831145}, "name": "7006 - GERLAND", "address": "Avenue Jean Jaur\u00e8s - Au niveau du square Galtier"}, "10079": {"position": {"lat": 45.768127, "lng": 4.879096}, "name": "10079 - ANATOLE FRANCE / BARBUSSE", "address": "Rue Anatole France/Angle av Barbusse"}, "7008": {"position": {"lat": 45.75251, "lng": 4.846278}, "name": "7008 - JEAN JAUR\u00c8S / GUILLOTI\u00c8RE", "address": "Avenue Jean Jaur\u00e8s - Angle rue de la Guilloti\u00e8re"}, "7009": {"position": {"lat": 45.737503, "lng": 4.837484}, "name": "7009 - JEAN JAUR\u00c8S", "address": "174\u2013180 Avenue Jean Jaur\u00e8s 69007 Lyon"}, "7010": {"position": {"lat": 45.747358, "lng": 4.836009}, "name": "7010 - CENTRE BERTHELOT", "address": "Rue Pasteur - Angle avenue Berthelot"}, "8035": {"position": {"lat": 45.747251, "lng": 4.865386}, "name": "8035 - SANS SOUCI", "address": "54 COURS ALBERT THOMAS"}, "10084": {"position": {"lat": 45.783533, "lng": 4.871294}, "name": "10084 - DOUA / AVENUE DES ARTS", "address": "84 avenue des Arts"}, "7013": {"position": {"lat": 45.730786, "lng": 4.823733}, "name": "7013 - HALLE TONY GARNIER", "address": "93\u2013131 Avenue Tony Garnier 69007 Lyon"}, "8038": {"position": {"lat": 45.746691, "lng": 4.867501}, "name": "8038 - ALBERT THOMAS / VILLON", "address": "Angle rue Villon"}, "10087": {"position": {"lat": 45.760603, "lng": 4.900702}, "name": "10087 - BARATIN", "address": "Face au 115 rue Pierre Baratin"}, "8040": {"position": {"lat": 45.736289, "lng": 4.883667}, "name": "8040 - AMBROISE PAR\u00c9", "address": "Face au 54 Boulevard Ambroise Par\u00e9"}, "10089": {"position": {"lat": 45.774581, "lng": 4.87406}, "name": "10089 - COLIN / PERRONCEL", "address": "Rue Colin - Angle rue Alexis Perroncel"}, "8042": {"position": {"lat": 45.731361, "lng": 4.860139}, "name": "8042 - FRANCIS DE PRESSENS\u00c9", "address": "73 RUE CAZENEUVE"}, "10091": {"position": {"lat": 45.774754, "lng": 4.887977}, "name": "10091 - CH\u00c2TEAU GAILLARD / FORT", "address": "28 RUE DU CH\u00c2TEAU GAILLARD (VILLEURBANNE)"}, "10092": {"position": {"lat": 45.771561, "lng": 4.890378}, "name": "10092 - MONTGOLFIER / CHATEAU GAILLARD", "address": "3 RUE DU CHAMP DE L'ORME (VILLEURBANNE)"}, "7021": {"position": {"lat": 45.729791, "lng": 4.838138}, "name": "7021- CHALLEMEL LACOUR / GERLAND", "address": "176\u2013180 Rue de Gerland 69007 Lyon"}, "7022": {"position": {"lat": 45.743975, "lng": 4.841463}, "name": "7022 - JAUR\u00c8S / LAGRANGE", "address": "16 Impasse du Pr\u00e9 Gaudry 69007 Lyon"}, "7023": {"position": {"lat": 45.742639, "lng": 4.850538}, "name": "7023 - BERTHELOT / ROUTE DE VIENNE", "address": "Route de Vienne - Angle avenue Berthelot"}, "7024": {"position": {"lat": 45.748504, "lng": 4.840505}, "name": "7024 - BANCEL / CHEVREUL", "address": "6 RUE BANCEL"}, "6001": {"position": {"lat": 45.766893, "lng": 4.858922}, "name": "6001 - GARE DES BROTTEAUX", "address": "Place Jules Ferry angle rue G\u00e9n\u00e9ral Brosset face \u00e0 la gare des Brotteaux"}, "6002": {"position": {"lat": 45.777521, "lng": 4.844922}, "name": "6002 - PORTE DES ENFANTS DU RH\u00d4NE (FAR)", "address": "Le long des grilles, c\u00f4t\u00e9 ouest de la porte"}, "6003": {"position": {"lat": 45.772846, "lng": 4.856274}, "name": "6003 - AVENUE VERGUIN", "address": "Devant l'entr\u00e9e du parc"}, "6004": {"position": {"lat": 45.768896, "lng": 4.844845}, "name": "6004 - FOCH (FAR)", "address": "Angle rue Vend\u00f4me"}, "8053": {"position": {"lat": 45.743569, "lng": 4.870083}, "name": "8053 - LUMIERE / TROUILHET", "address": "6 RUE ANTOINE LUMIERE"}, "7030": {"position": {"lat": 45.743163, "lng": 4.834165}, "name": "7030 - QUARTIER GENERAL FRERE", "address": "33 Boulevard Yves Farge 69007 Lyon"}, "10103": {"position": {"lat": 45.784526, "lng": 4.877482}, "name": "10103 - DOUA / RUE DES SPORTS", "address": "103 ave des Arts / rue des Sports"}, "8056": {"position": {"lat": 45.73586, "lng": 4.856888}, "name": "8056 - DELORE / AUDIBERT ET LAVIROTTE", "address": "69 RUE AUDIBERT ET LAVIROTTE"}, "7033": {"position": {"lat": 45.749431, "lng": 4.834816}, "name": "7033 - ST LUC / ST JOSEPH (FAR)", "address": "Sur le quai haut"}, "8058": {"position": {"lat": 45.738671, "lng": 4.878117}, "name": "8058 - LONGEFER / KRUGER", "address": "10 RUE PDT P. KRUGER"}, "7035": {"position": {"lat": 45.750945, "lng": 4.83927}, "name": "7035 - MARSEILLE / UNIVERSIT\u00c9 (FAR)", "address": "Angle rue de Marseille"}, "6012": {"position": {"lat": 45.771794, "lng": 4.84459}, "name": "6012 - PLACE PUVIS DE CHAVANNES", "address": "Angle rue Vend\u00f4me"}, "8061": {"position": {"lat": 45.725403, "lng": 4.881292}, "name": "8061 - STADE VUILLERMET", "address": "164 AV. PAUL SANTY"}, "7038": {"position": {"lat": 45.749622, "lng": 4.85299}, "name": "7038 - PLACE STALINGRAD", "address": "Angle Rue de la Guillotiere"}, "10111": {"position": {"lat": 45.770309, "lng": 4.86196}, "name": "10111 - CHARLES HERNU", "address": "106 COURS VITTON (LYON 6\u00e8me)"}, "10112": {"position": {"lat": 45.754415, "lng": 4.885249}, "name": "10112 - PLACE DE LA RECONNAISSANCE", "address": "105 ROUTE DE GENAS (VILLEURBANNE)"}, "7041": {"position": {"lat": 45.746681, "lng": 4.844455}, "name": "7041 - DOMER / CHEVREUL", "address": "Rue Domer/angle rue Chevreul"}, "10114": {"position": {"lat": 45.757931, "lng": 4.910776}, "name": "10114 - BEL AIR / LES BROSSES", "address": "2 AV. DU BEL AIR (VILLEURBANNE)"}, "1003": {"position": {"lat": 45.769289, "lng": 4.830127}, "name": "1003 - PLACE SATHONAY", "address": "6 PLACE SATHONAY"}, "6020": {"position": {"lat": 45.774526, "lng": 4.848443}, "name": "6020 - MUS\u00c9E GUIMET", "address": "Angle rue Morellet"}, "7045": {"position": {"lat": 45.737745, "lng": 4.824495}, "name": "7045 - PARC DES BERGES", "address": "40 AV. LECLERC"}, "6022": {"position": {"lat": 45.7694, "lng": 4.842584}, "name": "6022- PLACE MAR\u00c9CHAL LYAUTEY", "address": "Pierre Corneille/cours Franklin Roosevelt"}, "10119": {"position": {"lat": 45.780422, "lng": 4.904505}, "name": "10119 - VILLEURBANNE SAINT JEAN", "address": "2 RUE DES ACACIAS VILLEURBANNE"}, "10120": {"position": {"lat": 45.7759505002626, "lng": 4.87143421497628}, "name": "10120 - SALENGRO / DESCARTES", "address": "41 AV. ROGER SALENGRO (VILLEURBANNE)"}, "10121": {"position": {"lat": 45.771912, "lng": 4.8790700000000005}, "name": "10121 - PARC DU CENTRE", "address": "ANGLE RUE BILLON / RUE F. DE PRESSENSE"}, "10122": {"position": {"lat": 45.784023, "lng": 4.897102}, "name": "10122 - VERDUN / DESGRAND", "address": "17 RUE DE VERDUN (VILLEURBANNE)"}, "6028": {"position": {"lat": 45.764345, "lng": 4.853492}, "name": "6028 - RECAMMIER / T\u00caTE D'OR", "address": "Angle rue T\u00eate d'Or"}, "7053": {"position": {"lat": 45.750344, "lng": 4.845048}, "name": "7053 - JAUR\u00c8S / THIBAUDI\u00c8RE", "address": "26 RUE DE LA THIBAUDIERE"}, "5006": {"position": {"lat": 45.7620452080746, "lng": 4.82872732991442}, "name": "5006 - QUAI ROMAIN ROLLAND", "address": "Face ancien Palais de Justice"}, "6031": {"position": {"lat": 45.763717, "lng": 4.8437909999999995}, "name": "6031 - LAFAYETTE/CORNEILLE", "address": "Angle cours Lafayette"}, "6032": {"position": {"lat": 45.764821, "lng": 4.8415669999999995}, "name": "6032 - PR\u00c9FECTURE / SARRAIL", "address": "Angle rue Vauban"}, "6040": {"position": {"lat": 45.764013, "lng": 4.849933}, "name": "6040 - LES HALLES", "address": "71 COURS LAFAYETTE"}, "6035": {"position": {"lat": 45.785455999999996, "lng": 4.8540849999999995}, "name": "6035 - CIT\u00c9 INTERNATIONALE", "address": "Face parvis du palais des congr\u00e8s"}, "6036": {"position": {"lat": 45.783885, "lng": 4.852156}, "name": "6036 - MUS\u00c9E D'ART CONTEMPORAIN (FAR)", "address": "All\u00e9e A. Lignon"}, "6037": {"position": {"lat": 45.782287, "lng": 4.849378}, "name": "6037 - CIT\u00c9 INTERNATIONALE / INTERPOL", "address": "All\u00e9e A. Lignon"}, "7062": {"position": {"lat": 45.747735, "lng": 4.8516200000000005}, "name": "7062 - GARIBALDI / DOMER", "address": "51 RUE DOMER"}, "5015": {"position": {"lat": 45.75197, "lng": 4.821662}, "name": "5015 - FULCHIRON", "address": "Devant le n\u00b041 rue de la Quarantaine"}, "5016": {"position": {"lat": 45.757581, "lng": 4.801023}, "name": "5016 - MAIRIE DU 5\u00b0", "address": "Devant la mairie du 5\u00b0"}, "6041": {"position": {"lat": 45.78458, "lng": 4.859664}, "name": "6041 - CIT\u00c9 INTERNATIONALE / T\u00caTE D'OR NORD", "address": "50 QUAI ACHILLE LIGNON"}, "6042": {"position": {"lat": 45.784812, "lng": 4.856432}, "name": "6042 - CIT\u00c9 INTERNATIONALE - R\u00c9SIDENCE H\u00d4TELI\u00c8RE", "address": "devant la r\u00e9sidence h\u00f4teli\u00e8re \u00e0 l'ouest de la place publique"}, "6043": {"position": {"lat": 45.784698, "lng": 4.851896}, "name": "6043 - CIT\u00c9 INTERNATIONALE - CIN\u00c9MA", "address": "80 QUAI CHARLES DE GAULLE"}, "6044": {"position": {"lat": 45.766372, "lng": 4.865058}, "name": "6044 - CHARMETTES / BELLECOMBE", "address": "23 RUE DE LA VIABERT"}, "6045": {"position": {"lat": 45.766284, "lng": 4.856848}, "name": "6045 - BROTTEAUX / VAUBAN", "address": "44 BVD DES BROTTEAUX"}, "9029": {"position": {"lat": 45.773125, "lng": 4.807831}, "name": "9029 - SAINT PIERRE DE VAISE", "address": "Place Vanderpol/Angle St Pierre de Vaise"}, "5009": {"position": {"lat": 45.764695, "lng": 4.828969}, "name": "5009 - PLACE FOUSSERET", "address": "angle quai de Bondy"}, "4001": {"position": {"lat": 45.770392, "lng": 4.814254}, "name": "4001 - CONSERVATOIRE BIS", "address": ""}, "4002": {"position": {"lat": 45.774193, "lng": 4.827743}, "name": "4002 - MAIRIE DU 4\u00b0", "address": "Devant la mairie du 4\u00b0"}, "4003": {"position": {"lat": 45.779731, "lng": 4.834708}, "name": "4003- PLACE COMMANDANT  ARNAUD", "address": "Angle rue de Belfort"}, "4004": {"position": {"lat": 45.779786, "lng": 4.827635}, "name": "4004 - H\u00c9NON", "address": "Angle rue H\u00e9non"}, "5029": {"position": {"lat": 45.767057, "lng": 4.827014}, "name": "5029 - PLACE GERSON", "address": "Prox. Quai Pierre Scize"}, "4006": {"position": {"lat": 45.773358, "lng": 4.821234}, "name": "4006 - PHILIPPE DE LASSALLE", "address": "Angle rue Anselme, face \u00e0 l'IUFM"}, "4007": {"position": {"lat": 45.779332, "lng": 4.820259}, "name": "4007 - PLACE FLAMMARION", "address": "C\u00f4t\u00e9 Rue Philippe de Lassalle"}, "4009": {"position": {"lat": 45.77591, "lng": 4.825394}, "name": "4009 - JACQUARD / DENFERT-ROCHEREAU", "address": "Rue Denfert-Rochereau / Angle rue Jacquart"}, "8007": {"position": {"lat": 45.745018, "lng": 4.866424}, "name": "8007 - FR\u00c8RES LUMI\u00c8RE", "address": "Angle rue Villon"}, "4012": {"position": {"lat": 45.779186, "lng": 4.840917}, "name": "4012 - PLACE ADRIEN GODIEN", "address": "Angle mont\u00e9e de la Boucle"}, "10073": {"position": {"lat": 45.761468, "lng": 4.872466}, "name": "10073 - INSTITUT D'ART CONTEMPORAIN", "address": "Rue Docteur Dolard / Angle rue 4 Septembre"}, "5040": {"position": {"lat": 45.757847, "lng": 4.826103}, "name": "5040 - PLACE CR\u00c9PU", "address": "7 PLACE BENOIT CREPU"}, "10056": {"position": {"lat": 45.779066, "lng": 4.871581}, "name": "10056 - 11 NOVEMBRE / GASTON BERGER", "address": "Avenue du 11 Nov./angle av Gaston Berger"}, "10036": {"position": {"lat": 45.77435, "lng": 4.859157}, "name": "10036 - STALINGRAD", "address": "Boulevard Stalingrad/angle rue Charlie Chaplin"}, "5044": {"position": {"lat": 45.7598, "lng": 4.796561}, "name": "5044 - CHAMPVERT", "address": "87 RUE DOCTEUR EDMOND LOCARD"}, "4021": {"position": {"lat": 45.774061, "lng": 4.82516}, "name": "4021 - TABAREAU", "address": "Angle Bvd de la Croix-Rousse"}, "4022": {"position": {"lat": 45.77608, "lng": 4.832543}, "name": "4022 - PLACE DE LA CROIX-ROUSSE", "address": "Prox. Grande rue de la Croix-Rousse"}, "4023": {"position": {"lat": 45.777961, "lng": 4.810523}, "name": "4023 - PONT MAZARYK", "address": "Face au 45 quai Gillet"}, "4024": {"position": {"lat": 45.788204, "lng": 4.818572}, "name": "04024 - LYON METROPOLE", "address": "FACE AU 81 QUAI JOSEPH GILLET"}, "4025": {"position": {"lat": 45.775425, "lng": 4.817888}, "name": "4025 - CHAZI\u00c8RE", "address": "29 RUE CHAZIERE"}, "4026": {"position": {"lat": 45.774574, "lng": 4.813656}, "name": "04026 - BIRMINGHAM", "address": "Avenue Birmingham, sortie tunnel mode doux c\u00f4t\u00e9 Sa\u00f6ne - 69000 Lyon"}, "3003": {"position": {"lat": 45.762974, "lng": 4.855071}, "name": "3003 - PART-DIEU / DERUELLE (FAR)", "address": "Face rue Massena, entr\u00e9e centre commercial"}, "3004": {"position": {"lat": 45.759648, "lng": 4.848139}, "name": "3004 - BOURSE DU TRAVAIL (FAR)", "address": "Angle rue Moncey / Part-Dieu"}, "5053": {"position": {"lat": 45.75597, "lng": 4.818904}, "name": "5053 - SAINT JUST", "address": "1 PLACE DE L'ABBE LARUE"}, "5054": {"position": {"lat": 45.763906, "lng": 4.792643}, "name": "5054 - CHAMPVERT", "address": "192 AV. BARTHELEMY BUYER"}, "2037": {"position": {"lat": 45.747956, "lng": 4.824898}, "name": "2037 - PLACE DES ARCHIVES", "address": "12 COURS CHARLEMAGNE"}, "3008": {"position": {"lat": 45.745828, "lng": 4.8706309999999995}, "name": "3008 - INSTITUT LUMIERE", "address": "105 COURS ALBERT THOMAS"}, "3009": {"position": {"lat": 45.750251, "lng": 4.857919}, "name": "3009 - MUSEE AFRICAIN", "address": "133 COURS GAMBETTA"}, "7056": {"position": {"lat": 45.755783, "lng": 4.840745}, "name": "7056 - PLACE RASPAIL (FAR)", "address": "4 PLACE RASPAIL"}, "10059": {"position": {"lat": 45.76884, "lng": 4.884276}, "name": "10059 - ANATOLE FRANCE / ZOLA", "address": "Rue Anatole France"}, "3012": {"position": {"lat": 45.749565, "lng": 4.887311}, "name": "3012 - PLACE DU CH\u00c2TEAU", "address": "A c\u00f4t\u00e9 de l'\u00e9glise"}, "3013": {"position": {"lat": 45.753683, "lng": 4.889285}, "name": "3013 - PLACE ANTOINETTE", "address": "Place Antoinette"}, "7005": {"position": {"lat": 45.73182, "lng": 4.833996}, "name": "7005 - DEBOURG", "address": "Avenue Debourg - Angle avenue Jean Jaur\u00e8s"}, "10038": {"position": {"lat": 45.779062, "lng": 4.866874}, "name": "10038 - CONDORCET", "address": "Bvd 11 Nov./prox. arret tram Condorcet"}, "3016": {"position": {"lat": 45.759361, "lng": 4.842308}, "name": "3016 - LIBERT\u00c9 / PART-DIEU (FAR)", "address": "Angle rue de la Part-Dieu"}, "7055": {"position": {"lat": 45.746779, "lng": 4.842051}, "name": "7055 - SERVANT / JABOULAY", "address": "23 RUE RENAN"}, "4042": {"position": {"lat": 45.781699, "lng": 4.820596}, "name": "4042 - GREGORY COUPET", "address": "94 RUE PHILIPPE DE LASALLE"}, "5008": {"position": {"lat": 45.754978, "lng": 4.812427}, "name": "5008 - SAINTE IR\u00c9N\u00c9E", "address": "Place Sainte Ir\u00e9n\u00e9e"}, "3021": {"position": {"lat": 45.759488, "lng": 4.869346}, "name": "3021 - PLACE DE LA FERRANDI\u00c8RE", "address": "Intersection Ferrandi\u00e8re/Jasseron"}, "9050": {"position": {"lat": 45.783698, "lng": 4.794485}, "name": "9050 - ALLEE DE L'EUROPE", "address": "AVENUE DU PLATEAU"}, "3024": {"position": {"lat": 45.741336, "lng": 4.885538}, "name": "3024 - ROCKEFELLER / ESQUIROL", "address": "Intersection Rockefeller / Esquirol"}, "2001": {"position": {"lat": 45.758, "lng": 4.834594}, "name": "2001 - BELLECOUR / R\u00c9PUBLIQUE (FAR)", "address": "Angle R\u00e9publique / rue de la Barre"}, "2002": {"position": {"lat": 45.758149, "lng": 4.8304279999999995}, "name": "2002 - BELLECOUR / ST EXUP\u00c9RY", "address": "C\u00f4t\u00e9 rue Lintier"}, "2003": {"position": {"lat": 45.753049, "lng": 4.828297}, "name": "2003 - PLACE AMP\u00c8RE", "address": "Angle Henry IV"}, "2004": {"position": {"lat": 45.750116, "lng": 4.82801}, "name": "2004 - PERRACHE / CARNOT", "address": "16 PLACE CARNOT"}, "3029": {"position": {"lat": 45.752967, "lng": 4.850271}, "name": "3029 - PLACE ARISTIDE BRIAND", "address": "Angle Gambetta"}, "2006": {"position": {"lat": 45.745528, "lng": 4.82359}, "name": "2006 - PLACE DE L'HIPPODROME", "address": "Angle cours Charlemagne"}, "3031": {"position": {"lat": 45.759906, "lng": 4.844511}, "name": "3031 - CORNEILLE / SERVIENT", "address": "Angle rue Servient"}, "2008": {"position": {"lat": 45.756775, "lng": 4.833917}, "name": "2008 - PLACE ANTONIN PONCET (FAR)", "address": "C\u00f4t\u00e9 rue des Marroniers"}, "2009": {"position": {"lat": 45.739652, "lng": 4.814984}, "name": "2009 - CONFLUENCE DOCKS", "address": "Sur l'esplanade entre la rue Hrant Dink et le 40 quai Rambaud"}, "2010": {"position": {"lat": 45.743317, "lng": 4.815747}, "name": "02010 - CONFLUENCE DARSE", "address": "ANGLE ALEE ANDRE MURE ET QUAI ANTOINE RIBOUD"}, "2011": {"position": {"lat": 45.756813, "lng": 4.828342}, "name": "2011 - SALA / RUE DU PLAT", "address": "Face \u00e0 la facult\u00e9 catholique"}, "2012": {"position": {"lat": 45.753455, "lng": 4.833367}, "name": "2012 - GAILLETON", "address": "3 PLACE GAILLETON"}, "2013": {"position": {"lat": 45.759932, "lng": 4.832111}, "name": "2013 - C\u00c9LESTINS", "address": "C\u00f4t\u00e9 nord de la place, vers l'ascenseur"}, "2014": {"position": {"lat": 45.760762, "lng": 4.834305}, "name": "2014 - JACOBINS", "address": "3 RUE JEAN DE TOURNES"}, "3039": {"position": {"lat": 45.752553, "lng": 4.8557559999999995}, "name": "3039 - PLACE BIR-HAKEIM", "address": "Au niveau de la rue Duvivier"}, "2016": {"position": {"lat": 45.763065, "lng": 4.83425}, "name": "2016 - PLACE REGAUD", "address": "Angle rue Tupin / rue Herriot"}, "2017": {"position": {"lat": 45.762184, "lng": 4.836023}, "name": "2017 - R\u00c9PUBLIQUE / FERRANDI\u00c8RE (FAR)", "address": "Rue de la R\u00e9publique"}, "3067": {"position": {"lat": 45.752907, "lng": 4.863923}, "name": "3067 - HACHETTE", "address": "6 RUE JEAN RENOIR"}, "2020": {"position": {"lat": 45.733388, "lng": 4.818954}, "name": "2020 - MUSEE DES CONFLUENCES", "address": "Parvis du mus\u00e9e des confluences"}, "5030": {"position": {"lat": 45.755054, "lng": 4.807811}, "name": "5030 - CHARCOT / R\u00c9SIDENCE UNIVERSITAIRE", "address": "Angle rue du fort Ste Ir\u00e9n\u00e9e / Charcot"}, "2022": {"position": {"lat": 45.751233, "lng": 4.82688}, "name": "2022 - PLACE CARNOT", "address": "Angle rue Plessier"}, "2023": {"position": {"lat": 45.754688, "lng": 4.829927}, "name": "2023 -  HUGO / STE H\u00c9L\u00c8NE", "address": "Entre rue Victor Hugo et rue d'Auvergne"}, "2024": {"position": {"lat": 45.758733, "lng": 4.834136}, "name": "2024 - R\u00c9PUBLIQUE / MAUPIN", "address": "Entre Herriot et R\u00e9publique"}, "1001": {"position": {"lat": 45.767736, "lng": 4.832114}, "name": "1001 - TERREAUX / TERME", "address": "Angle rue d'Alg\u00e9rie"}, "2026": {"position": {"lat": 45.759379, "lng": 4.835414}, "name": "2026 - R\u00c9PUBLIQUE / PAUFIQUE", "address": "Angle rue de la R\u00e9publique"}, "3051": {"position": {"lat": 45.748193, "lng": 4.880641}, "name": "3051 - PLACE HENRI", "address": "Angle rue Docteur Long/av. Lacassagne"}, "2028": {"position": {"lat": 45.744438, "lng": 4.822152}, "name": "2028- SAINTE-BLANDINE", "address": "Face station tram Ste Blandine"}, "1005": {"position": {"lat": 45.766073, "lng": 4.8328489999999995}, "name": "1005 - MEISSONNIER", "address": "Place Meissonier - Angle Sud-Est de la place"}, "1006": {"position": {"lat": 45.76791, "lng": 4.819845}, "name": "1006- SUBSISTANCES", "address": "12 QUAI ST VINCENT"}, "3058": {"position": {"lat": 45.758974, "lng": 4.853599}, "name": "3058 - PLACE DU LAC", "address": "Face \u00e0 la poste"}, "2035": {"position": {"lat": 45.759842, "lng": 4.835776}, "name": "2035 - CHILDEBERT / RIVI\u00c8RE", "address": ""}, "2036": {"position": {"lat": 45.759494, "lng": 4.830161}, "name": "2036 - PLACE GOURJU", "address": "11 PLACE ANTONIN GOURJU"}, "1013": {"position": {"lat": 45.768223, "lng": 4.827533}, "name": "1013 - MARTINI\u00c8RE", "address": "Rue de la Martini\u00e8re"}, "2038": {"position": {"lat": 45.753077, "lng": 4.829706}, "name": "2038 - REMPARTS D'AINAY", "address": "16 RUE DES REMPARTS D'AINAY"}, "2039": {"position": {"lat": 45.749257, "lng": 4.82984}, "name": "2039 - CHARIT\u00c9 / R\u00c9CAMMIER", "address": "86 RUE DE LA CHARITE"}, "1016": {"position": {"lat": 45.765944, "lng": 4.831089}, "name": "1016 - P\u00caCHERIE", "address": "Rue de la Plati\u00e8re - Angle quai de la P\u00eacherie"}, "2041": {"position": {"lat": 45.754468, "lng": 4.833041}, "name": "2041 - SALA / CHARITE", "address": "44 RUE SALA"}, "3066": {"position": {"lat": 45.754296, "lng": 4.86359}, "name": "3066 - KIMMERLING / FAURE", "address": "139 AV. FELIX FAURE"}, "3071": {"position": {"lat": 45.740492, "lng": 4.888084}, "name": "3071 - BIOPARC", "address": "angle ave Rockfeller / cours Eug\u00e9nie face au Bioparc"}, "1020": {"position": {"lat": 45.766763, "lng": 4.832942}, "name": "1020 - TERREAUX / CHENAVARD", "address": "Rue Chenavard - C\u00f4t\u00e9 place des Terreaux"}, "1021": {"position": {"lat": 45.766832, "lng": 4.834267}, "name": "1021 - TERREAUX / BEAUX ARTS", "address": "Rue Herriot - Devant Mus\u00e9e des Beaux Arts"}, "1022": {"position": {"lat": 45.769508, "lng": 4.837495}, "name": "1022 - PLACE TOLOZAN (FAR)", "address": "Place Tolozan - Angle nord-est de la place"}, "1023": {"position": {"lat": 45.772229, "lng": 4.819389}, "name": "1023 - CROIX ROUSSE / PERFETTI", "address": "16 BVD DE LA CROIX-ROUSSE"}}